bike_station_name,station_longitude,station_latitude,number_of_bikes,number_empty_docks,number_of_docks,number_standard_bikes,number_ebikes,bike_station_id
"River Street , Clerkenwell",-0.10997,51.529163,13,6,19,9,4,1
"Phillimore Gardens, Kensington",-0.197574,51.499606,33,4,37,33,0,2
"Christopher Street, Liverpool Street",-0.084605,51.521283,0,32,32,0,0,3
"St. Chad's Street, King's Cross",-0.120973,51.530059,8,15,23,8,0,4
"Sedding Street, Sloane Square",-0.156876,51.49313,3,24,27,3,0,5
"Broadcasting House, Marylebone",-0.144228,51.518117,1,17,18,1,0,6
"Charlbert Street, St. John's Wood",-0.168074,51.5343,14,2,16,14,0,7
"Maida Vale, Maida Vale",-0.183486,51.529857,39,0,39,36,3,8
"New Globe Walk, Bankside",-0.09644,51.507385,4,15,19,4,0,9
"Park Street, Bankside",-0.092754,51.505974,5,13,18,5,0,10
"Brunswick Square, Bloomsbury",-0.122502,51.523951,3,21,24,3,0,11
"Malet Street, Bloomsbury",-0.130431,51.52168,18,31,49,18,0,12
"Scala Street, Fitzrovia",-0.136039,51.519914,1,20,21,1,0,13
"Belgrove Street , King's Cross",-0.123616,51.529943,31,17,48,31,0,14
"Great Russell Street, Bloomsbury",-0.127854,51.517727,0,26,26,0,0,15
"Cartwright Gardens , Bloomsbury",-0.125979,51.526357,3,18,21,2,1,16
"Hatton Wall, Holborn",-0.109006,51.521661,3,23,26,3,0,17
"Drury Lane, Covent Garden",-0.122219,51.51477,0,27,27,0,0,18
"Taviton Street, Bloomsbury",-0.131161,51.52505,2,28,30,0,2,19
"Drummond Street , Euston",-0.136052,51.527326,21,7,28,20,1,20
"Lansdowne Drive, Hackney Central",-0.062806,51.539834,11,15,26,9,2,21
"Northington Street , Holborn",-0.114079,51.522264,0,19,19,0,0,22
"Red Lion Square, Holborn",-0.119123,51.519435,0,16,16,0,0,23
"British Museum, Bloomsbury",-0.124678,51.51908,1,34,35,1,0,24
"Doric Way , Somers Town",-0.13225,51.528833,47,3,50,47,0,25
"Ampton Street , Clerkenwell",-0.118295,51.52728,7,14,21,7,0,26
"Bouverie Street, Temple",-0.107927,51.513821,1,32,33,0,1,27
"Bolsover Street, Fitzrovia",-0.143613,51.523518,2,17,19,1,1,28
"Hereford Road, Bayswater",-0.193487,51.513735,22,0,22,21,1,29
"Windsor Terrace, Hoxton",-0.093421,51.529154,11,13,24,11,0,30
"Fanshaw Street, Hoxton",-0.083353,51.529537,33,3,36,32,1,31
"Leonard Circus , Shoreditch",-0.084439,51.524696,2,41,43,2,0,32
"Central House, Aldgate",-0.07015,51.515231,3,15,18,3,0,33
"Pancras Road, King's Cross",-0.129386,51.534123,3,13,16,3,0,34
"De Vere Gardens, Kensington",-0.18498,51.501737,9,19,28,8,1,36
"Penywern Road, Earl's Court",-0.192369,51.491593,17,0,17,15,2,37
"Abingdon Villas, Kensington",-0.197245,51.497387,9,8,17,8,1,38
"Shoreditch High Street, Shoreditch",-0.07813,51.526377,24,17,41,23,1,39
"Commercial Street, Shoreditch",-0.075578,51.52127,1,15,16,1,0,40
"Pindar Street, Liverpool Street",-0.083493,51.520955,0,24,24,0,0,41
"Wenlock Road , Hoxton",-0.093903,51.530991,17,11,28,17,0,42
"Crawford Street, Marylebone",-0.157183,51.52026,4,14,18,4,0,43
"Bruton Street, Mayfair",-0.144165,51.510736,0,21,21,0,0,44
"Boston Place, Marylebone",-0.162298,51.522511,25,1,26,25,0,45
"Nesham Street, Wapping",-0.06691,51.507131,14,2,16,14,0,46
"Warwick Avenue Station, Maida Vale",-0.183846,51.523344,15,4,19,12,3,47
"Godliman Street, St. Paul's",-0.099141,51.512484,1,24,25,1,0,48
"Curzon Street, Mayfair",-0.145904,51.507069,0,16,16,0,0,49
"East Road, Hoxton",-0.087459,51.528673,6,21,27,6,0,50
"Finsbury Library , Finsbury",-0.104298,51.526717,6,23,29,6,0,51
"Roscoe Street, St. Luke's",-0.094934,51.522954,0,18,18,0,0,52
"Grafton Street, Mayfair",-0.143495,51.509992,0,18,18,0,0,53
"Golden Lane, Barbican",-0.094475,51.521747,2,25,27,2,0,54
"Finsbury Circus, Liverpool Street",-0.086685,51.517075,1,32,33,0,1,55
"Paddington Street, Marylebone",-0.154701,51.520583,1,15,16,1,0,56
"Guilford Street , Bloomsbury",-0.120202,51.523346,7,25,32,7,0,57
"New Inn Yard, Shoreditch",-0.079248,51.524526,1,19,20,1,0,58
"Lisson Grove, St. John's Wood",-0.17219,51.526448,4,14,18,4,0,60
"Great Dover Street, The Borough",-0.089446,51.497382,33,0,33,33,0,61
"Cotton Garden Estate, Kennington",-0.106323,51.490757,21,3,24,21,0,62
"Murray Grove , Hoxton",-0.089782,51.53089,21,6,27,18,3,63
"William IV Street, Strand",-0.124749,51.509462,1,25,26,0,1,64
"Gower Place , Euston",-0.135188,51.525227,1,16,17,1,0,65
"Holborn Circus, Holborn",-0.108657,51.51795,5,35,40,4,1,66
"Hatton Garden, Holborn",-0.108028,51.518825,1,27,28,1,0,67
"Theobald's Road , Holborn",-0.116688,51.520596,1,25,26,1,0,68
"Euston Road, Euston",-0.134407,51.526236,17,7,24,17,0,69
"Calshot Street , King's Cross",-0.117069,51.53136,11,13,24,10,1,70
"Newgate Street , St. Paul's",-0.09885,51.515418,3,31,34,3,0,71
"Farringdon Lane, Clerkenwell",-0.10834,51.52352,3,13,16,3,0,72
"Old Street Station, St. Luke's",-0.089659,51.52548,0,29,29,0,0,73
"Vauxhall Cross, Vauxhall",-0.124469,51.485917,6,11,17,5,1,74
"Torrens Street, Angel",-0.10548,51.532199,3,16,19,3,0,75
"Longford Street, The Regent's Park",-0.144083,51.525595,4,17,21,3,1,76
"Russell Square Station, Bloomsbury",-0.124121,51.523418,7,19,26,6,1,77
"Sadlers Sports Centre, Finsbury",-0.099489,51.524868,2,15,17,1,1,78
"Arundel Street, Temple",-0.113855,51.511726,0,18,18,0,0,79
"Webber Street , Southwark",-0.102091,51.500693,31,14,45,30,1,80
"Great Titchfield Street, Fitzrovia",-0.141327,51.520253,0,19,19,0,0,81
"Chancery Lane, Holborn",-0.111257,51.514274,0,15,15,0,0,82
"Panton Street, West End",-0.13151,51.509639,0,21,21,0,0,83
"Breams Buildings, Holborn",-0.111778,51.515937,1,24,25,1,0,84
"Tanner Street, Bermondsey",-0.0786,51.500647,31,10,41,31,0,85
"Sancroft Street, Vauxhall",-0.115156,51.489479,24,0,24,24,0,86
"Devonshire Square, Liverpool Street",-0.079684,51.516468,0,16,16,0,0,87
"Bayley Street , Bloomsbury",-0.132053,51.518587,0,25,25,0,0,88
"Tavistock Place, Bloomsbury",-0.123509,51.52625,5,14,19,5,0,89
"Harrington Square 1, Camden Town",-0.139174,51.533019,7,20,27,7,0,90
"Walnut Tree Walk, Vauxhall",-0.111014,51.493686,20,0,20,18,2,91
"Borough Road, Elephant & Castle",-0.10044,51.498898,29,12,41,29,0,92
"Cloudesley Road, Angel",-0.109025,51.534408,16,21,37,15,1,93
"Bricklayers Arms, Borough",-0.085814,51.495061,28,0,28,26,2,94
"Aldersgate Street, Barbican",-0.09734,51.520841,1,14,15,1,0,95
"Falkirk Street, Hoxton",-0.078505,51.53095,13,13,26,12,1,96
"Gloucester Road (North), Kensington",-0.183834,51.497924,3,15,18,3,0,97
"Hampstead Road, Euston",-0.138231,51.525542,2,52,54,2,0,98
"Old Quebec Street, Marylebone",-0.158264,51.514577,0,16,16,0,0,99
"Albert Embankment, Vauxhall",-0.122806,51.490435,6,18,24,6,0,100
"Queen Street 1, Bank",-0.09294,51.511553,2,20,22,2,0,101
"Jewry Street, Aldgate",-0.076793,51.513406,0,17,17,0,0,102
"Vicarage Gate, Kensington",-0.192538,51.504723,1,17,18,0,1,103
"Crosswall, Tower",-0.077121,51.511594,1,33,34,1,0,104
"Westbourne Grove, Bayswater",-0.19024,51.515529,23,3,26,23,0,105
"Woodstock Street, Mayfair",-0.147301,51.514105,0,21,21,0,0,106
"Finsbury Leisure Centre, St. Luke's",-0.096317,51.526008,13,7,20,13,0,107
"Abbey Orchard Street, Westminster",-0.132102,51.498125,3,26,29,3,0,108
"Soho Square , Soho",-0.132328,51.515631,0,57,57,0,0,109
"Wellington Road, St. John's Wood",-0.172528,51.533043,16,1,17,13,3,110
"Park Lane , Hyde Park",-0.157275,51.510017,4,24,28,3,1,111
"Stonecutter Street, Holborn",-0.10527,51.515809,0,21,21,0,0,112
"Gloucester Road (Central), South Kensington",-0.183289,51.496462,5,14,19,5,0,113
"Park Road (Baker Street), The Regent's Park",-0.158963,51.524517,15,7,22,15,0,114
"Braham Street, Aldgate",-0.073537,51.514233,0,34,34,0,0,115
"Little Argyll Street, West End",-0.141423,51.514499,0,21,21,0,0,116
"Lollard Street, Vauxhall",-0.114934,51.49288,23,2,25,23,0,117
"Rochester Row, Westminster",-0.135478,51.495827,4,9,13,4,0,118
"Bath Street, St. Luke's",-0.090847,51.525893,1,17,18,1,0,119
"The Guildhall, Guildhall",-0.09308,51.515735,1,16,17,1,0,120
"Baker Street, Marylebone",-0.156166,51.518913,0,22,22,0,0,121
"Norton Folgate, Liverpool Street",-0.078869,51.521113,0,23,23,0,0,122
"St. John Street, Finsbury",-0.104724,51.52836,9,9,18,9,0,123
"Eaton Square, Belgravia",-0.150905,51.496544,4,16,20,3,1,124
"Borough High Street, The Borough",-0.094524,51.500694,15,6,21,15,0,125
"Museum of London, Barbican",-0.096496,51.517821,1,51,52,0,1,126
"Wood Street, Guildhall",-0.093885,51.517008,0,17,17,0,0,127
"Emperor's Gate, South Kensington",-0.185296,51.495362,11,11,22,11,0,128
"Golden Square, Soho",-0.137043,51.511897,0,18,18,0,0,129
"Tower Gardens , Tower",-0.075459,51.509506,6,18,24,6,0,130
"Eversholt Street , Camden Town",-0.136792,51.533005,10,6,16,10,0,131
"Bethnal Green Road, Shoreditch",-0.074754,51.523648,11,27,38,11,0,132
"Derry Street, Kensington",-0.191462,51.501364,11,7,18,11,0,133
"Wapping High Street, Wapping",-0.06797,51.504904,10,10,20,9,1,134
"Clerkenwell Green, Clerkenwell",-0.104708,51.52326,1,20,21,1,0,135
"Queen Victoria Street, St. Paul's",-0.097441,51.511961,2,30,32,1,1,136
"Green Street, Mayfair",-0.157436,51.512276,0,19,19,0,0,138
"Lambeth Road, Vauxhall",-0.117974,51.494881,8,10,18,7,1,139
"Finsbury Square , Moorgate",-0.085634,51.520962,1,32,33,1,0,140
"Chapel Place, Marylebone",-0.147203,51.515308,1,28,29,1,0,141
"West Cromwell Road, Earl's Court",-0.198286,51.493724,17,7,24,17,0,142
"Pont Street, Knightsbridge",-0.161203,51.496886,2,22,24,2,0,143
"Kennington Cross, Kennington",-0.111435,51.48894,47,0,47,46,1,144
"Ilchester Place, Kensington",-0.202759,51.500743,3,21,24,3,0,145
"Vauxhall Bridge , Pimlico",-0.129361,51.488365,4,31,35,3,1,146
"Portugal Street, Holborn",-0.116146,51.514943,0,16,16,0,0,147
"Tachbrook Street, Victoria",-0.138364,51.492111,14,2,16,13,1,148
"Kennington Road Post Office, Oval",-0.110683,51.484788,17,1,18,14,3,149
"Holy Trinity Brompton, Knightsbridge",-0.168917,51.497056,17,11,28,17,0,150
"Chepstow Villas, Notting Hill",-0.201554,51.512136,14,12,26,14,0,151
"Hampton Street, Walworth",-0.101536,51.49217,19,2,21,19,0,152
"Bayswater Road, Hyde Park",-0.174411,51.511933,26,1,27,26,0,153
"Waterloo Station 3, Waterloo",-0.112824,51.503791,34,1,35,22,12,154
"Lexham Gardens, Kensington",-0.191933,51.495866,1,18,19,0,1,155
"New Kent Road, The Borough",-0.092921,51.494436,33,0,33,33,0,156
"Wright's Lane, Kensington",-0.193068,51.500397,8,29,37,8,0,157
"Trebovir Road, Earl's Court",-0.19617,51.490853,13,5,18,12,1,158
"Waterloo Place, St. James's",-0.131773,51.506633,0,20,20,0,0,160
"Guildhouse Street, Victoria",-0.141334,51.492345,16,0,16,16,0,161
"Southampton Place, Holborn",-0.121328,51.517606,1,19,20,0,1,162
"Sloane Avenue, Knightsbridge",-0.167894,51.493184,6,21,27,6,0,163
"Cleveland Gardens, Bayswater",-0.183118,51.515607,5,11,16,5,0,164
"Orsett Terrace, Bayswater",-0.183716,51.517932,7,8,15,7,0,165
"Seville Street, Knightsbridge",-0.159237,51.501855,2,25,27,1,1,166
"Eccleston Place, Victoria",-0.147624,51.49395,9,10,19,9,0,167
"Argyll Road, Kensington",-0.195455,51.500401,4,15,19,4,0,168
"Porchester Place, Paddington",-0.165164,51.514746,7,11,18,7,0,169
"Hardwick Street, Clerkenwell",-0.108068,51.527842,16,14,30,16,0,170
"Collingham Gardens, Earl's Court",-0.186753,51.491615,14,0,14,13,1,171
"Sumner Place, South Kensington",-0.173715,51.491211,2,17,19,2,0,172
"Waterloo Road, South Bank",-0.113001,51.50486,10,5,15,8,2,173
"Strand, Strand",-0.115057,51.512582,1,34,35,1,0,174
"Worship Street, Shoreditch",-0.079608,51.521668,0,51,51,0,0,175
"Gloucester Terrace, Bayswater",-0.188098,51.517919,21,2,23,21,0,176
"Ashley Place, Victoria",-0.140947,51.49616,9,16,25,9,0,177
"Warwick Square, Pimlico",-0.141923,51.489856,19,0,19,19,0,178
"North Audley Street, Mayfair",-0.153645,51.512911,0,17,17,0,0,180
"Belgrave Square, Belgravia",-0.152317,51.499412,8,13,21,8,0,181
"Bell Street , Marylebone",-0.165842,51.522029,17,1,18,16,1,182
"Riverlight North, Nine Elms",-0.136123,51.482362,23,1,24,21,2,183
"Portland Place, Marylebone",-0.145211,51.520715,1,33,34,1,0,184
"Alderney Street, Pimlico",-0.140741,51.488057,13,1,14,11,2,185
"South Wharf Road, Paddington",-0.17581,51.517335,2,14,16,2,0,186
"Queen's Gate (South), South Kensington",-0.178433,51.492479,19,6,25,19,0,187
"Nutford Place, Marylebone",-0.164393,51.516517,6,12,18,6,0,188
"Claremont Square, Angel",-0.109914,51.531666,2,16,18,1,1,189
"Rampayne Street, Pimlico",-0.132845,51.489975,20,1,21,19,1,190
"Hyde Park Corner, Hyde Park",-0.15352,51.503117,2,34,36,1,1,191
"Wardour Street, Soho",-0.133201,51.512515,0,16,16,0,0,192
"Bankside Mix, Bankside",-0.100186,51.505817,26,34,60,26,0,193
"Hop Exchange, The Borough",-0.091773,51.504627,23,9,32,23,0,194
"Milroy Walk, South Bank",-0.106237,51.507244,11,19,30,11,0,195
"Union Street, The Borough",-0.098497,51.503688,9,8,17,8,1,196
"Stamford Street, South Bank",-0.111606,51.505569,26,1,27,26,0,197
"Great Tower Street, Monument",-0.082989,51.510484,0,24,24,0,0,199
"LMU Commercial Road, Whitechapel",-0.066078,51.514924,13,1,14,12,1,200
"Dorset Square, Marylebone",-0.161113,51.522596,14,2,16,13,1,201
"Leman Street, Aldgate",-0.069542,51.512363,31,6,37,29,2,202
"West Smithfield Rotunda, Farringdon",-0.100791,51.518218,1,14,15,1,0,203
"Margery Street, Clerkenwell",-0.112432,51.526599,8,11,19,8,0,204
"New Road 1 , Whitechapel",-0.062697,51.518154,8,28,36,5,3,206
"Grosvenor Crescent, Belgravia",-0.153194,51.501352,5,13,18,5,0,207
"Mallory Street, Marylebone",-0.166304,51.525051,5,15,20,5,0,208
"Denyer Street, Knightsbridge",-0.165101,51.493583,6,24,30,6,0,209
"Hinde Street, Marylebone",-0.151926,51.516814,1,20,21,1,0,210
"Cadogan Place, Knightsbridge",-0.158105,51.494645,4,30,34,4,0,211
"Campden Hill Road, Notting Hill",-0.199004,51.506584,2,15,17,1,1,212
"Wellington Arch, Hyde Park",-0.149569,51.50274,5,31,36,5,0,213
"Endsleigh Gardens, Euston",-0.130504,51.526838,29,3,32,29,0,214
"Moorfields, Moorgate",-0.088285,51.519069,1,53,54,1,0,215
"Old Brompton Road, South Kensington",-0.18119,51.490945,16,14,30,15,1,216
"Wormwood Street, Liverpool Street",-0.082422,51.516154,1,15,16,1,0,217
"St. Luke's Church, Chelsea",-0.170194,51.489716,1,19,20,0,1,218
"Bramham Gardens, Earl's Court",-0.190393,51.490163,29,0,29,28,1,219
"Chelsea Green, Chelsea",-0.166485,51.490664,13,2,15,13,0,220
"Horseferry Road, Westminster",-0.130458,51.494816,11,5,16,11,0,221
"Knightsbridge, Hyde Park",-0.155349,51.502757,1,42,43,1,0,222
"Rodney Road , Walworth",-0.09022,51.491484,23,1,24,23,0,223
"Queensway, Kensington Gardens",-0.187402,51.51031,6,11,17,6,0,224
"Notting Hill Gate Station, Notting Hill",-0.196422,51.509353,1,29,30,1,0,225
"Charles II Street, West End",-0.131961,51.508446,0,24,24,0,0,226
"Great Percy Street, Clerkenwell",-0.11548,51.528915,16,7,23,15,1,227
"St. James's Square, St. James's",-0.134621,51.507424,4,36,40,3,1,228
"Whitehall Place, Strand",-0.123179,51.506543,17,29,46,17,0,229
"Poured Lines, Bankside",-0.103137,51.506692,18,13,31,18,0,230
"Queen's Gate (Central), South Kensington",-0.178732,51.493967,7,24,31,7,0,231
"Carey Street, Holborn",-0.112753,51.51501,0,16,16,0,0,232
"Pall Mall East, West End",-0.130699,51.50777,5,17,22,5,0,233
"Liverpool Road (N1 Centre), Angel",-0.106992,51.534504,14,10,24,11,3,234
"Kennington Road  , Vauxhall",-0.110889,51.495718,9,27,36,8,1,235
"Fashion Street, Whitechapel",-0.073438,51.51838,12,18,30,12,0,236
"Dock Street, Wapping",-0.068161,51.509786,25,5,30,25,0,237
"Frampton Street, Paddington",-0.175116,51.523353,20,12,32,19,1,238
"Warren Street Station, Euston",-0.138019,51.524438,0,26,26,0,0,239
"Beaumont Street, Marylebone",-0.151359,51.522008,2,21,23,1,1,242
"Gloucester Street, Pimlico",-0.139625,51.490962,24,1,25,22,2,243
"Earnshaw Street , Covent Garden",-0.128585,51.516118,2,16,18,0,2,244
"Grosvenor Road, Pimlico",-0.142207,51.485357,19,10,29,17,2,245
"Berry Street, Clerkenwell",-0.099994,51.522853,3,38,41,2,1,246
"St. John's Wood Church, The Regent's Park",-0.167515,51.530529,1,49,50,1,0,247
"Triangle Car Park, Hyde Park",-0.170279,51.506451,5,22,27,4,1,248
"Harper Road, The Borough",-0.096191,51.498597,35,7,42,34,1,249
"Royal Avenue 1, Chelsea",-0.162727,51.489932,9,1,10,9,0,250
"Brushfield Street, Liverpool Street",-0.079249,51.518908,3,31,34,3,0,251
"Shoreditch Park, Hoxton",-0.086379,51.534042,30,0,30,29,1,253
"Chadwell Street, Angel",-0.106408,51.530515,14,4,18,14,0,254
"Clifton Road, Maida Vale",-0.179592,51.525575,22,0,22,19,3,255
"Houghton Street, Strand",-0.116764,51.51362,1,14,15,1,0,256
"Westminster University, Marylebone",-0.154907,51.522481,4,12,16,3,1,257
"Kensington Gore, Knightsbridge",-0.178656,51.501432,0,23,23,0,0,258
"Bourne Street, Belgravia",-0.153233,51.490959,4,12,16,4,0,259
"Broadwick Street, Soho",-0.13558,51.513684,0,18,18,0,0,260
"Princes Square, Bayswater",-0.191351,51.513489,16,0,16,16,0,261
"LSBU (Borough Road), Elephant & Castle",-0.103132,51.498744,12,23,35,12,0,262
"St. Mary Axe, Aldgate",-0.08066,51.514225,1,20,21,1,0,263
"Tysoe Street, Clerkenwell",-0.109256,51.526443,17,3,20,16,1,264
"Southwick Street, Paddington",-0.169249,51.515953,14,3,17,14,0,265
"Queen's Gate (North), Kensington",-0.180246,51.501026,0,41,41,0,0,266
"Regency Street, Westminster",-0.132224,51.49206,10,12,22,10,0,267
"Belgrave Road, Victoria",-0.144132,51.493204,13,16,29,13,0,268
"Empire Square, The Borough",-0.08974,51.500823,37,9,46,36,1,269
"Kennington Lane Rail Bridge, Vauxhall",-0.122492,51.486343,24,7,31,23,1,270
"London Zoo,  The Regent's Park",-0.156285,51.535836,27,5,32,27,0,271
"Baylis Road, Waterloo",-0.110699,51.501444,11,11,22,11,0,272
"Belvedere Road 1, South Bank",-0.114686,51.506133,30,8,38,29,1,273
"Warwick Road, Olympia",-0.205284,51.496712,33,3,36,32,1,274
"Barbican Centre, Barbican",-0.092176,51.520044,0,19,19,0,0,275
"Lower Thames Street, Monument",-0.084985,51.509301,0,24,24,0,0,276
"Kensington Church Street, Kensington",-0.191496,51.503157,10,7,17,9,1,277
"Tooley Street, Bermondsey",-0.07962,51.503493,15,12,27,15,0,278
"North Wharf Road, Paddington",-0.176645,51.518622,4,21,25,4,0,279
"Royal Avenue 2, Chelsea",-0.162418,51.490083,9,1,10,9,0,280
"Smith Square, Westminster",-0.127575,51.495805,5,13,18,5,0,281
"Kingsway, Covent Garden",-0.118478,51.514409,1,15,16,0,1,283
"Lambeth North Station, Waterloo",-0.112031,51.49914,18,2,20,18,0,284
"St. John's Wood Road, St. John's Wood",-0.174653,51.527294,14,21,35,11,3,286
"Bedford Way, Bloomsbury",-0.128377,51.523673,8,15,23,8,0,287
"Elizabeth Bridge, Victoria",-0.147478,51.492369,6,28,34,6,0,288
"South Audley Street, Mayfair",-0.151289,51.50923,0,15,15,0,0,289
"St Mary's Hospital, Paddington",-0.171103,51.518268,10,10,20,9,1,290
"Claverton Street, Pimlico",-0.138089,51.484839,27,5,32,27,0,291
"Montpelier Street, Knightsbridge",-0.165471,51.498884,3,13,16,3,0,292
"Kensington Olympia Station, Olympia",-0.209494,51.498157,5,20,25,5,0,293
"St. George's Square, Pimlico",-0.135635,51.488226,15,1,16,15,0,294
"Swan Street, The Borough",-0.092762,51.500296,24,3,27,24,0,295
"Knaresborough Place, Earl's Court",-0.190603,51.493631,5,13,18,5,0,296
"Geraldine Street, Elephant & Castle",-0.106,51.496127,12,5,17,11,1,297
"Curlew Street, Shad Thames",-0.074189,51.502279,13,8,21,13,0,298
"Vincent Square, Westminster",-0.136928,51.493985,6,13,19,6,0,299
"Serpentine Car Park, Hyde Park",-0.17306,51.505014,3,15,18,3,0,300
"Marylebone Lane, Marylebone",-0.148105,51.514759,0,24,24,0,0,301
"Putney Pier, Wandsworth",-0.216573,51.466907,19,9,28,18,1,302
"Albert Gate, Hyde Park",-0.158456,51.502953,4,30,34,4,0,303
"Rathbone Street, Fitzrovia",-0.135025,51.518162,0,16,16,0,0,306
"Black Lion Gate, Kensington Gardens",-0.187842,51.509908,19,5,24,19,0,307
"Long Lane , Bermondsey",-0.085666,51.499075,20,0,20,19,1,308
"Embankment (Savoy), Strand",-0.119047,51.509631,12,29,41,12,0,309
"Black Prince Road, Vauxhall",-0.116911,51.490867,13,6,19,13,0,310
"Foley Street, Fitzrovia",-0.140485,51.519181,1,23,24,1,0,311
"Grove End Road, St. John's Wood",-0.17677,51.530889,20,0,20,17,3,312
"Wells Street, Fitzrovia",-0.138072,51.517344,0,38,38,0,0,313
"Tyers Gate, Bermondsey",-0.083159,51.500889,30,6,36,30,0,314
"The Tennis Courts, The Regent's Park",-0.153463,51.525367,2,14,16,1,1,315
"Warwick Row, Westminster",-0.14296,51.497998,2,19,21,2,0,316
"Dickens Square, Borough",-0.093913,51.496791,18,14,32,17,1,317
"Sackville Street, Mayfair",-0.138846,51.510048,1,17,18,0,1,318
"Baldwin Street, St. Luke's",-0.088542,51.527025,1,20,21,1,0,319
"Queen Mother Sports Centre, Victoria",-0.139956,51.493573,26,0,26,25,1,320
"Bermondsey Street, Bermondsey",-0.081608,51.497855,24,0,24,23,1,321
"Palissy Street, Shoreditch",-0.073955,51.526293,10,16,26,10,0,322
"Clifton Street, Shoreditch",-0.083067,51.523196,0,24,24,0,0,323
"Ontario Street, Elephant & Castle",-0.101384,51.49652,13,2,15,12,1,324
"St. Martin's Street, West End",-0.129697,51.509087,4,14,18,4,0,325
"Graham Street, Angel",-0.099981,51.532661,16,10,26,14,2,326
"New North Road 2, Hoxton",-0.086016,51.53114,12,10,22,12,0,328
"Prince Albert Road, The Regent's Park",-0.160854,51.535892,13,11,24,12,1,329
"Eastbourne Mews, Paddington",-0.179135,51.516417,23,11,34,23,0,330
"Bunhill Row, Moorgate",-0.089887,51.520858,3,27,30,3,0,331
"Nevern Place, Earl's Court",-0.194757,51.493343,11,9,20,11,0,332
"Palace Gardens Terrace, Notting Hill",-0.193764,51.508605,12,25,37,12,0,333
"Concert Hall Approach 1, South Bank",-0.115851,51.505044,8,2,10,8,0,334
"Tavistock Street, Covent Garden",-0.120718,51.511968,0,33,33,0,0,335
"Concert Hall Approach 2, South Bank",-0.115533,51.504942,17,1,18,16,1,336
"Pembridge Villas, Notting Hill",-0.197524,51.511084,1,15,16,1,0,337
"Risinghill Street, Angel",-0.111781,51.533319,15,10,25,9,6,339
"Bank of England Museum, Bank",-0.087587,51.514441,0,16,16,0,0,340
"Craven Street, Strand",-0.126021,51.508103,0,23,23,0,0,341
"London Zoo Car Park, The Regent's Park",-0.150181,51.536922,17,19,36,17,0,343
"Goswell Road (City Uni), Finsbury",-0.101026,51.528246,4,13,17,4,0,344
"Flood Street, Chelsea",-0.166878,51.488023,22,11,33,22,0,345
"Lower Marsh, Waterloo",-0.113936,51.500139,15,2,17,14,1,347
"Grosvenor Square, Mayfair",-0.150481,51.51217,0,17,17,0,0,348
"St. George Street, Mayfair",-0.142783,51.51196,0,18,18,0,0,349
"Queen's Gate, Kensington Gardens",-0.179854,51.501715,19,2,21,19,0,350
"Macclesfield Rd, St Lukes",-0.097122,51.529423,28,0,28,26,2,351
"Vauxhall Street, Vauxhall",-0.116625,51.486965,18,1,19,18,0,352
"Greycoat Street , Westminster",-0.134234,51.494591,2,15,17,2,0,353
"Northumberland Avenue, Strand",-0.123702,51.506767,14,23,37,14,0,354
"Clapham Common Station, Clapham Common",-0.139221,51.461388,9,12,21,8,1,355
"South Kensington Station, South Kensington",-0.173881,51.494412,0,15,15,0,0,356
"Howland Street, Fitzrovia",-0.139016,51.520994,2,28,30,2,0,357
"High Holborn , Covent Garden",-0.124826,51.516226,0,20,20,0,0,358
"Butler Place, Westminster",-0.13544,51.497829,1,17,18,1,0,359
"Waterloo Station 2, Waterloo",-0.113426,51.503919,53,2,55,39,14,361
"Royal College Street, Camden Town",-0.133952,51.536264,6,51,57,6,0,362
"Lord's, St. John's Wood",-0.171185,51.529121,9,15,24,9,0,363
"Store Street, Bloomsbury",-0.13214,51.519572,4,28,32,4,0,364
"City Road, Angel",-0.100168,51.530344,45,2,47,45,0,365
"Millennium Hotel, Mayfair",-0.151126,51.510919,0,27,27,0,0,366
"Harrowby Street, Marylebone",-0.164207,51.517372,5,11,16,5,0,367
"Harriet Street, Knightsbridge",-0.15934,51.500241,3,22,25,3,0,368
"Paddington Green, Paddington",-0.174593,51.520205,10,10,20,10,0,370
"King Edward Walk, Waterloo",-0.10988,51.49775,20,2,22,20,0,371
"Sardinia Street, Holborn",-0.117863,51.515208,0,24,24,0,0,372
"Prince Consort Road, Knightsbridge",-0.176415,51.499806,2,16,18,1,1,373
"Waterloo Station 1, Waterloo",-0.113864,51.504027,34,2,36,32,2,374
"Kensington Town Hall, Kensington",-0.194392,51.501945,17,1,18,17,0,375
"Millbank Tower, Pimlico",-0.125674,51.491884,2,22,24,2,0,376
"Waterloo Bridge, South Bank",-0.113656,51.505354,9,6,15,9,0,377
"Natural History Museum, South Kensington",-0.179077,51.495592,0,42,42,0,0,378
"Turquoise Island, Notting Hill",-0.200838,51.514311,10,11,21,10,0,379
"Stanhope Gate, Mayfair",-0.150666,51.506864,0,21,21,0,0,380
"Charlotte Street, Fitzrovia",-0.135777,51.51953,1,13,14,0,1,381
"Farm Street, Mayfair",-0.147449,51.509351,1,14,15,1,0,382
"Frith Street, Soho",-0.131213,51.513103,0,18,18,0,0,383
"Marloes Road, Kensington",-0.192404,51.496481,9,6,15,9,0,384
"Moor Street, Soho",-0.13011,51.513527,1,15,16,0,1,386
"Fire Brigade Pier, Vauxhall",-0.121394,51.493699,19,11,30,19,0,387
"Upper Grosvenor Street, Mayfair",-0.155757,51.51013,0,18,18,0,0,389
"Buxton Street 1, Shoreditch",-0.068856,51.521776,21,20,41,21,0,390
"Clifford Street, Mayfair",-0.142345,51.510662,0,17,17,0,0,391
"Imperial College, Knightsbridge",-0.179702,51.499428,0,21,21,0,0,392
"Snow Hill, Farringdon",-0.103604,51.517334,1,14,15,1,0,393
"Aberdeen Place, St. John's Wood",-0.176268,51.524826,18,0,18,18,0,394
"Cadogan Gardens, Chelsea",-0.159919,51.492462,6,9,15,6,0,395
"Shouldham Street, Marylebone",-0.163609,51.51809,5,11,16,5,0,396
"Devonshire Terrace, Bayswater",-0.17977,51.51348,16,0,16,16,0,397
"Holland Park, Kensington",-0.200742,51.502319,3,27,30,3,0,398
"Brick Lane Market, Shoreditch",-0.071653,51.522617,4,20,24,4,0,399
"George Street, Marylebone",-0.154106,51.517703,1,26,27,1,0,400
"Columbia Road, Shoreditch",-0.075375,51.528187,8,16,24,7,1,401
"Penfold Street, Marylebone",-0.171681,51.522892,10,5,15,10,0,402
"George Place Mews, Marylebone",-0.158249,51.516892,1,15,16,1,0,403
"Palace Gate, Kensington Gardens",-0.1844,51.502042,10,3,13,10,0,404
"Gloucester Road Station, South Kensington",-0.18267,51.494185,1,14,15,1,0,405
"Sun Street, Liverpool Street",-0.083935,51.520009,1,23,24,1,0,408
"Strata, Elephant & Castle",-0.099828,51.493146,32,9,41,30,2,409
"Edgware Road Station, Marylebone",-0.169774,51.519968,12,52,64,11,1,410
"Rotherhithe Roundabout, Rotherhithe",-0.055846,51.499169,19,0,19,17,2,411
"Cleaver Street, Kennington",-0.110121,51.488105,17,0,17,17,0,412
"Chelsea Bridge, Pimlico",-0.149004,51.485821,5,10,15,5,0,419
"Southwark Station 1, Southwark",-0.105312,51.504043,11,26,37,11,0,420
"Southwark Station 2, Southwark",-0.104778,51.504044,6,39,45,6,0,421
"Eaton Square (South), Belgravia",-0.153933,51.494561,24,7,31,24,0,423
"Ebury Bridge, Pimlico",-0.149186,51.490491,16,13,29,16,0,424
"Vincent Street, Pimlico",-0.129925,51.493072,9,8,17,9,0,426
"Cheapside, Bank",-0.09294,51.51397,1,42,43,1,0,427
"Exhibition Road, Knightsbridge",-0.174554,51.499917,1,19,20,1,0,428
"South Parade, Chelsea",-0.17524,51.48902,4,14,18,4,0,430
"Crinan Street, King's Cross",-0.122203,51.534474,10,10,20,10,0,431
"Exhibition Road Museums 1, South Kensington",-0.173796,51.496468,0,13,13,0,0,432
"Wren Street, Holborn",-0.116279,51.524564,13,20,33,12,1,433
"Kennington Station, Kennington",-0.105593,51.488852,14,9,23,13,1,435
"Red Lion Street, Holborn",-0.11655,51.51824,1,35,36,1,0,436
"Vauxhall Walk, Vauxhall",-0.120903,51.488124,26,1,27,26,0,437
"Killick Street, King's Cross",-0.118677,51.5338,22,0,22,22,0,439
"Kennington Oval, Oval",-0.113134,51.483145,24,9,33,21,3,440
"Sail Street, Vauxhall",-0.114605,51.495656,24,0,24,24,0,441
"Walmer Road, Avondale",-0.211358,51.510101,24,0,24,24,0,442
"Philpot Street, Whitechapel",-0.058641,51.515256,23,7,30,21,2,443
"Bethnal Green Garden, Bethnal Green",-0.055312,51.52568,18,6,24,17,1,444
"Cheshire Street, Bethnal Green",-0.065076,51.52388,19,9,28,18,1,445
"York Hall, Bethnal Green",-0.055894,51.528936,8,19,27,6,2,446
"Jubilee Crescent, Cubitt Town",-0.007542,51.493381,35,19,54,35,0,447
"Fisherman's Walk West, Canary Wharf",-0.02296,51.50623,12,24,36,12,0,448
"Shadwell Station, Shadwell",-0.057159,51.511088,28,7,35,28,0,449
"Jubilee Street, Stepney",-0.053177,51.515975,22,6,28,20,2,450
"Hermitage Court, Wapping",-0.063531,51.504719,9,7,16,8,1,451
"St. Katharine's Way, Tower",-0.070542,51.505697,14,10,24,12,2,452
"Garnet Street, Shadwell",-0.055167,51.508447,16,8,24,15,1,453
"Napier Avenue, Millwall",-0.021582,51.487679,18,2,20,17,1,454
"East Ferry Road, Cubitt Town",-0.014409,51.49447,6,11,17,6,0,455
"Parkway, Camden Town",-0.144664,51.538071,30,3,33,27,3,456
"Castlehaven Road, Camden Town",-0.145393,51.542138,19,10,29,19,0,457
"Wapping Lane, Wapping",-0.057544,51.504749,23,5,28,22,1,458
"Gunmakers Lane, Old Ford",-0.03338,51.535179,16,1,17,15,1,459
"Burdett Road, Mile End",-0.029138,51.516196,21,12,33,20,1,460
"Aston Street, Stepney",-0.038775,51.516,7,19,26,6,1,461
"Bonny Street, Camden Town",-0.138853,51.541603,18,27,45,17,1,462
"Thurtle Road, Haggerston",-0.071881,51.534776,17,5,22,16,1,463
"St. Mary & St. Michael Church, Stepney",-0.052099,51.51417,15,10,25,15,0,464
"Pitfield Street North,Hoxton",-0.08249,51.53558,28,0,28,28,0,465
"Whiston Road, Haggerston",-0.076341,51.534464,15,6,21,15,0,466
"Southern Grove, Bow",-0.030556,51.523538,1,16,17,0,1,467
"Cantrell Road, Bow",-0.022694,51.521564,9,15,24,9,0,468
"Mostyn Grove, Bow",-0.025492,51.530535,12,34,46,12,0,470
"Hewison Street, Old Ford",-0.028155,51.533283,12,7,19,10,2,471
"Malmesbury Road, Bow",-0.027616,51.529452,17,4,21,17,0,472
"Millharbour, Millwall",-0.019355,51.496137,17,2,19,17,0,473
"Gascoyne Road, Victoria Park",-0.038557,51.541515,12,8,20,12,0,474
"Lightermans Road, Millwall",-0.020157,51.499041,10,21,31,8,2,475
"Stebondale Street, Cubitt Town",-0.009205,51.489096,28,1,29,26,2,476
"Spindrift Avenue, Millwall",-0.018716,51.49109,36,0,36,35,1,477
"Stepney Green Station, Stepney",-0.04667,51.521889,7,14,21,5,2,478
"Pott Street, Bethnal Green",-0.058005,51.527152,7,13,20,6,1,479
"Flamborough Street, Limehouse",-0.038986,51.512871,23,2,25,23,0,480
"Saunders Ness Road, Cubitt Town",-0.009001,51.487129,33,2,35,33,0,481
"Exhibition Road Museums 2, South Kensington",-0.173689,51.495947,0,14,14,0,0,482
"Albert Gardens, Stepney",-0.047784,51.51328,26,7,33,26,0,483
"Bromley High Street, Bow",-0.013258,51.528828,20,4,24,20,0,484
"Old Ford Road, Bethnal Green",-0.048017,51.531127,17,7,24,14,3,485
"Granby Street, Shoreditch",-0.069543,51.525645,20,17,37,20,0,486
"Canton Street, Poplar",-0.025626,51.511811,15,8,23,15,0,487
"Reardon Street, Wapping",-0.058681,51.506946,21,1,22,20,1,488
"Pennington Street, Wapping",-0.065006,51.508622,30,15,45,30,0,490
"Queen Mary's, Mile End",-0.041378,51.522507,11,34,45,11,0,491
"Maplin Street, Mile End",-0.032267,51.525501,1,38,39,1,0,492
"South Quay East, Canary Wharf",-0.016251,51.50196,7,29,36,7,0,494
"Bow Church Station, Bow",-0.018703,51.528169,19,20,39,18,1,495
"Devons Road, Bow",-0.015578,51.52512,19,20,39,19,0,496
"Merchant Street, Bow",-0.027581,51.526578,10,17,27,10,0,497
"Bow Road Station, Bow",-0.025296,51.527058,14,28,42,14,0,498
"Furze Green, Bow",-0.021345,51.519265,25,11,36,24,1,499
"Ansell House, Stepney",-0.05438,51.520019,15,26,41,15,0,500
"Cephas Street, Bethnal Green",-0.054883,51.522561,16,8,24,16,0,501
"Bonner Gate, Victoria Park",-0.049591,51.53341,19,2,21,19,0,502
"Cleveland Way, Stepney",-0.051394,51.520893,16,20,36,13,3,503
"St. John's Park, Cubitt Town",-0.009506,51.496454,7,23,30,7,0,504
"Ackroyd Drive, Bow",-0.026768,51.520398,13,16,29,13,0,505
"Bell Lane, Liverpool Street",-0.075855,51.517475,2,21,23,2,0,506
"Clarkson Street, Bethnal Green",-0.059091,51.528692,15,16,31,15,0,507
"Fournier Street, Whitechapel",-0.074431,51.519362,1,17,18,1,0,508
"Fore Street, Guildhall",-0.090075,51.517842,1,18,19,1,0,509
"Westferry DLR, Limehouse",-0.025996,51.509303,12,29,41,12,0,510
"Sutton Street, Shadwell",-0.053558,51.511066,14,19,33,14,0,511
"Pritchard's Road, Bethnal Green",-0.06142,51.532091,29,1,30,29,0,512
"Watney Market, Stepney",-0.055656,51.514222,2,49,51,2,0,513
"Portman Square, Marylebone",-0.155525,51.516204,1,16,17,0,1,514
"Russell Gardens, Olympia",-0.211316,51.500088,10,14,24,10,0,515
"Chrisp Street Market, Poplar",-0.014438,51.5112,17,1,18,16,1,516
"Ford Road, Old Ford",-0.033085,51.532513,14,4,18,10,4,517
"Antill Road, Mile End",-0.037471,51.528224,15,15,30,12,3,518
"Teviot Street, Poplar",-0.011662,51.518811,19,14,33,18,1,519
"Bancroft Road, Bethnal Green",-0.047218,51.526041,19,2,21,19,0,520
"Driffield Road, Old Ford",-0.037366,51.534137,19,0,19,17,2,521
"Clinton Road, Mile End",-0.036017,51.525941,29,7,36,27,2,522
"Langdon Park, Poplar",-0.013475,51.51549,23,1,24,22,1,523
"Lancaster Gate , Bayswater",-0.179668,51.511654,13,25,38,12,1,524
"Blythe Road, Olympia",-0.2135,51.496927,13,11,24,12,1,525
"Lancaster Drive, Blackwall",-0.008428,51.503143,5,22,27,5,0,526
"Hansard Mews, Holland Park",-0.215808,51.503802,20,0,20,20,0,527
"Clarges Street, Mayfair",-0.145827,51.507326,0,16,16,0,0,528
"Manresa Road, Chelsea",-0.170983,51.486892,17,1,18,17,0,529
"Newby Place, Poplar",-0.012413,51.508896,16,2,18,15,1,530
"Twig Folly Bridge, Mile End",-0.042744,51.530326,15,6,21,15,0,531
"Jubilee Plaza, Canary Wharf",-0.020242,51.5034,30,33,63,30,0,532
"Wellington Row, Bethnal Green",-0.069743,51.528222,33,0,33,33,0,533
"Goldsmith's Row, Haggerston",-0.066035,51.531864,27,0,27,24,3,534
"Gloucester Avenue, Camden Town",-0.147154,51.537349,10,14,24,7,3,535
"Queensbridge Road, Haggerston",-0.06992,51.53385,13,22,35,13,0,536
"Old Montague Street, Whitechapel",-0.067937,51.51793,10,8,18,9,1,537
"Naval Row, Blackwall",-0.00699,51.508981,20,1,21,19,1,538
"Hoxton Station, Hoxton",-0.075901,51.531091,4,18,22,2,2,539
"Albany Street, The Regent's Park",-0.144466,51.528302,20,7,27,19,1,540
"Green Park Station, Mayfair",-0.142844,51.506613,2,26,28,2,0,541
"Salmon Lane, Limehouse",-0.033828,51.514115,21,12,33,19,2,542
"Lansdowne Walk, Ladbroke Grove",-0.204666,51.509591,2,19,21,1,1,543
"Percival Street, Finsbury",-0.102208,51.526153,19,3,22,19,0,544
"Arlington Road, Camden Town",-0.145246,51.539957,19,5,24,19,0,545
"New Fetter Lane, Holborn",-0.107987,51.517428,0,21,21,0,0,546
"East India DLR, Blackwall",-0.002275,51.509474,13,38,51,13,0,547
"Westminster Bridge Road, Elephant & Castle",-0.107913,51.498386,20,6,26,20,0,548
"Gaywood  Street, Elephant & Castle",-0.104193,51.49605,45,0,45,45,0,549
"Harford Street, Mile End",-0.039264,51.521564,23,0,23,22,1,550
"Import Dock, Canary Wharf",-0.01646,51.505772,11,28,39,11,0,551
"Watney Street, Shadwell",-0.056667,51.511542,25,2,27,25,0,552
"Regent's Row , Haggerston",-0.062546,51.535678,21,3,24,21,0,553
"Aberfeldy Street, Poplar",-0.005659,51.513548,12,4,16,10,2,554
"Heron Quays DLR, Canary Wharf",-0.021596,51.502661,14,13,27,14,0,556
"King Edward Street, St Pauls",-0.0985,51.51601,0,20,20,0,0,557
"Page Street, Westminster",-0.127554,51.493978,2,22,24,2,0,558
"Abbotsbury Road, Holland Park",-0.205991,51.501391,7,17,24,7,0,559
"Ladbroke Grove Central, Ladbroke Grove",-0.205921,51.511624,3,18,21,3,0,560
"Rectory Square, Stepney",-0.043371,51.518369,10,12,22,8,2,561
"Bury Place, Holborn",-0.12335,51.51746,0,21,21,0,0,562
"Preston's Road, Cubitt Town",-0.009152,51.499286,19,7,26,16,3,563
"Somerset House, Strand",-0.117619,51.509943,15,26,41,15,0,564
"Selby Street, Whitechapel",-0.063386,51.521905,8,9,17,8,0,565
"Westfield Ariel Way, White City",-0.224103,51.509158,29,13,42,28,1,566
"Bishop's Bridge Road West, Bayswater",-0.18697,51.51616,18,0,18,16,2,568
"Pitfield Street Central, Hoxton",-0.08299,51.53213,25,5,30,25,0,569
"Upper Bank Street, Canary Wharf",-0.017676,51.503083,12,24,36,11,1,570
"Westfield Southern Terrace ,Shepherd's Bush",-0.218337,51.506256,26,3,29,26,0,571
"Greenland Road, Camden Town",-0.141728,51.539099,34,2,36,34,0,572
"Limerston Street, West Chelsea",-0.18119,51.485587,16,2,18,15,1,573
"Eagle Wharf Road, Hoxton",-0.09315,51.53356,45,0,45,45,0,574
"Alpha Grove, Millwall",-0.022793,51.497304,11,12,23,10,1,576
"Globe Town Market, Bethnal Green",-0.047548,51.528869,9,11,20,9,0,577
"Hollybush Gardens, Bethnal Green",-0.057133,51.527607,15,17,32,15,0,578
"Queen Street 2, Bank",-0.093051,51.511246,0,36,36,0,0,579
"Doddington Grove, Kennington",-0.102996,51.486929,19,17,36,18,1,580
"New Cavendish Street, Marylebone",-0.147983,51.519167,1,17,18,1,0,581
"Abingdon Green, Westminster",-0.125972,51.49764,5,15,20,4,1,583
"Ilchester Gardens, Bayswater",-0.19096,51.51244,5,16,21,5,0,584
"Mudchute DLR, Cubitt Town",-0.014582,51.490645,11,20,31,10,1,586
"Monument Street, Monument",-0.08497,51.50964,0,22,22,0,0,587
"Hoxton Street, Hoxton",-0.0801,51.52959,19,8,27,19,0,588
"Drayton Gardens, West Chelsea",-0.179369,51.487196,9,9,18,9,0,589
"Greenberry Street, St.John's Wood",-0.16862,51.53256,6,20,26,5,1,590
"Bishop's Bridge Road East, Bayswater",-0.18377,51.5171,16,4,20,15,1,592
"Northdown Street, King's Cross",-0.11934,51.531066,13,8,21,13,0,593
"Kingsway Southbound, Strand",-0.117774,51.513875,1,32,33,1,0,594
"Hammersmith Road, Hammersmith",-0.21985,51.493267,21,1,22,20,1,595
"Parson's Green , Parson's Green",-0.199783,51.472817,12,9,21,10,2,596
"Fulham Park Road, Fulham",-0.20782,51.473471,17,10,27,14,3,597
"Southerton Road, Hammersmith",-0.228188,51.494499,37,1,38,36,1,598
"Manbre Road, Hammersmith",-0.223616,51.485743,24,4,28,24,0,599
"South Lambeth Road, Vauxhall",-0.124642,51.481747,18,3,21,17,1,600
"BBC White City, White City",-0.225787,51.514767,18,18,36,18,0,601
"Union Grove, Wandsworth Road",-0.133972,51.472993,29,16,45,29,0,602
"Caldwell Street, Stockwell",-0.116493,51.477839,38,6,44,34,4,603
"St Martins Close, Camden Town",-0.138535,51.538792,6,12,18,5,1,604
"Seymour Place, Marylebone",-0.163667,51.520331,29,0,29,28,1,605
"Addison Road, Holland Park",-0.210941,51.504199,12,14,26,11,1,606
"Putney Bridge Station, Fulham",-0.210279,51.468814,10,11,21,10,0,607
"Colet Gardens, Hammersmith",-0.216493,51.491093,28,2,30,28,0,608
"Sugden Road, Clapham",-0.157788,51.465123,17,2,19,15,2,609
"Danvers Street, West Chelsea",-0.172078,51.482567,10,11,21,10,0,610
"Princedale Road , Holland Park",-0.208486,51.506465,9,11,20,9,0,611
"Wandsworth Rd, Isley Court, Wandsworth Road",-0.141812,51.469259,29,1,30,29,0,612
"Woodstock Grove, Shepherd's Bush",-0.2174,51.504038,23,1,24,23,0,613
"London Fields, Hackney Central",-0.058826,51.54119,19,2,21,19,0,614
"Finlay Street, Fulham",-0.215895,51.476885,24,0,24,21,3,615
"Aintree Street, Fulham",-0.209973,51.481021,24,0,24,24,0,616
"Elysium Place, Fulham",-0.207842,51.471079,13,8,21,13,0,617
"Eel Brook Common, Walham Green",-0.193254,51.476259,24,0,24,24,0,618
"Irene Road, Parsons Green",-0.19701,51.473763,43,0,43,42,1,619
"Surrey Lane, Battersea",-0.16716,51.47518,28,0,28,27,1,620
"Wandsworth Town Station, Wandsworth",-0.187427,51.460864,15,18,33,13,2,621
"Lansdowne Road, Ladbroke Grove",-0.205535,51.507481,1,28,29,1,0,622
"Nantes Close, Wandsworth",-0.180791,51.46193,6,16,22,6,0,623
"Courland Grove, Wandsworth Road",-0.132102,51.472918,21,19,40,20,1,624
"Queen's Circus, Battersea Park",-0.149551,51.477619,28,0,28,27,1,625
"Normand Park, West Kensington",-0.204815,51.484386,24,0,24,21,3,626
"Holden Street, Battersea",-0.15823,51.46879,17,3,20,17,0,627
"William Morris Way, Sands End",-0.184318,51.468819,14,12,26,13,1,628
"Morie Street, Wandsworth",-0.190184,51.459953,28,0,28,28,0,629
"Clarence Walk, Stockwell",-0.126994,51.470732,15,13,28,14,1,630
"Battersea Park Road, Nine Elms",-0.14177,51.479501,17,10,27,17,0,631
"Sheepcote Lane, Battersea",-0.163041,51.470538,23,5,28,23,0,632
"Vereker Road, West Kensington",-0.209378,51.489591,19,13,32,18,1,633
"Brook Green South, Brook Green",-0.215804,51.494347,20,13,33,19,1,634
"Greyhound Road, Hammersmith",-0.214428,51.486062,19,17,36,19,0,635
"South Park, Sands End",-0.193502,51.467064,19,9,28,18,1,636
"Spencer Park, Wandsworth Common",-0.174691,51.45787,13,12,25,12,1,637
"Falcon Road, Clapham Junction",-0.169821,51.466633,28,0,28,26,2,638
"Silverthorne Road, Battersea",-0.148059,51.472865,28,0,28,28,0,640
"Archbishop's Park, Waterloo",-0.117495,51.498241,16,7,23,16,0,641
"Fawcett Close, Battersea",-0.174485,51.469161,27,9,36,26,1,642
"All Saints' Road, Portobello",-0.204764,51.519042,9,13,22,7,2,643
"Rainville Road, Hammersmith",-0.223852,51.483732,24,12,36,23,1,644
"Great Suffolk Street, The Borough",-0.100292,51.501732,21,0,21,20,1,645
"Buckingham Gate, Westminster",-0.137424,51.498865,1,15,16,1,0,646
"Richmond Way, Shepherd's Bush",-0.217515,51.500353,21,6,27,21,0,647
"Peterborough Road, Sands End",-0.196274,51.46904,30,0,30,30,0,648
"World's End Place, West Chelsea",-0.180274,51.481805,22,0,22,22,0,649
"St. Mark's Road, North Kensington",-0.213872,51.51687,20,1,21,19,1,650
"Thorndike Close, West Chelsea",-0.183853,51.480898,23,2,25,23,0,651
"Evesham Street, Avondale",-0.21819,51.511486,25,4,29,25,0,652
"Simpson Street, Clapham Junction",-0.170703,51.470847,23,2,25,21,2,653
"Ashmole Estate, Oval",-0.117661,51.482678,28,6,34,27,1,654
"Crabtree Lane, Fulham",-0.219346,51.482944,17,10,27,17,0,655
"Broomhouse Lane, Parsons Green",-0.199135,51.468418,24,5,29,24,0,656
"Blythe Road West, Shepherd's Bush",-0.221791,51.49968,21,0,21,20,1,657
"Ethelburga Estate, Battersea Park",-0.164786,51.477292,25,5,30,25,0,658
"Blackfriars Station, St. Paul's",-0.103078,51.511934,0,35,35,0,0,659
"West Kensington Station, West Kensington",-0.206029,51.49087,17,5,22,16,1,660
"All Saints Church, Portobello",-0.202608,51.51632,15,22,37,12,3,661
"Phene Street, Chelsea",-0.167919,51.484984,21,3,24,21,0,662
"Clarendon Road, Avondale",-0.211593,51.51323,21,3,24,20,1,663
"Austin Road, Battersea Park",-0.155442,51.474376,24,0,24,24,0,664
"Smugglers Way, Wandsworth",-0.191722,51.461083,21,1,22,21,0,665
"Harris Academy, Bermondsey",-0.07235,51.492668,10,8,18,10,0,666
"Shepherd's Bush Road North, Shepherd's Bush",-0.222293,51.501594,33,1,34,33,0,667
"Ravenscourt Park Station, Hammersmith",-0.236769,51.494223,26,0,26,24,2,668
"Teversham Lane, Stockwell",-0.123258,51.476149,39,0,39,39,0,669
"Ashley Crescent, Battersea",-0.152248,51.467185,24,4,28,24,0,670
"Parsons Green Station, Parsons Green",-0.201968,51.475089,20,36,56,20,0,671
"Chicheley Street, South Bank",-0.116747,51.502698,23,1,24,22,1,672
"Hibbert Street, Battersea",-0.180389,51.46517,25,11,36,24,1,673
"Carnegie Street, King's Cross",-0.116191,51.535467,29,11,40,29,0,674
"Usk Road, Clapham Junction",-0.182126,51.463489,14,16,30,13,1,675
"Hartington Road, Stockwell",-0.126874,51.47787,31,4,35,31,0,676
"Heath Road, Battersea",-0.146544,51.468669,22,5,27,22,0,677
"Esmond Street, Putney",-0.211468,51.462312,26,4,30,24,2,678
"Orbel Street, Battersea",-0.17021,51.474535,18,8,26,17,1,679
"Westbridge Road, Battersea",-0.170329,51.477684,16,12,28,15,1,680
"Bishop's Avenue, Fulham",-0.214749,51.473036,22,24,46,19,3,681
"Crisp Road, Hammersmith",-0.226606,51.488108,39,7,46,38,1,682
"Dorothy Road, Clapham Junction",-0.16375,51.465064,28,0,28,28,0,683
"Neville Gill Close, Wandsworth",-0.195197,51.454752,31,1,32,29,2,684
"Osiers Road, Wandsworth",-0.198735,51.46067,29,1,30,27,2,685
"Beryl Road, Hammersmith",-0.222456,51.488144,23,3,26,23,0,686
"Clements Road, Bermondsey",-0.061698,51.4954,15,8,23,14,1,687
"Northfields, Wandsworth",-0.200667,51.460951,9,19,28,8,1,688
"Spanish Road, Clapham Junction",-0.180884,51.459225,20,10,30,20,0,689
"Stanley Grove, Battersea",-0.15213,51.470475,12,12,24,11,1,690
"Erin Close, Walham Green",-0.195777,51.479463,20,4,24,20,0,691
"Cadogan Close, Victoria Park",-0.028941,51.542118,2,20,22,1,1,692
"Felsham Road, Putney",-0.215618,51.464786,16,2,18,16,0,693
"Putney Rail Station, Putney",-0.216526,51.460717,17,3,20,17,0,694
"Islington Green, Angel",-0.102757,51.536384,14,7,21,13,1,695
"Charing Cross Hospital, Hammersmith",-0.217995,51.487285,6,15,21,6,0,696
"Charlotte Terrace, Angel",-0.112721,51.536392,21,4,25,18,3,697
"Shoreditch Court, Haggerston",-0.070329,51.539083,16,19,35,14,2,698
"Belford House, Haggerston",-0.07023,51.536654,11,28,39,10,1,699
"Battersea Church Road, Battersea",-0.174347,51.476964,6,19,25,5,1,700
"Vicarage Crescent, Battersea",-0.176267,51.472876,13,17,30,12,1,701
"Durant Street, Bethnal Green",-0.06555,51.528681,24,0,24,21,3,702
"St. Bride Street, Holborn",-0.105344,51.515059,0,25,25,0,0,703
"Mexfield Road, East Putney",-0.202802,51.45682,3,15,18,2,1,704
"Upper Richmond Road, Putney",-0.212145,51.459715,10,15,25,10,0,705
"Snowsfields, London Bridge",-0.083632,51.502153,3,28,31,2,1,706
"Barons Court Station, West Kensington",-0.215087,51.490217,1,31,32,1,0,707
"Disraeli Road, Putney",-0.216145,51.46161,15,18,33,15,0,708
"Montserrat Road , Putney",-0.21555,51.463211,9,14,23,9,0,709
"Albert Bridge Road, Battersea Park",-0.163347,51.474392,19,1,20,19,0,710
"Everington Street, Fulham",-0.216305,51.483356,20,11,31,20,0,711
"Mile End Stadium, Mile End",-0.034903,51.518541,12,10,22,12,0,712
"Hawley Crescent, Camden Town",-0.14326,51.541007,20,2,22,20,0,713
"Stewart's Road, Wandsworth Road",-0.137235,51.473116,15,13,28,15,0,714
"Aylward Street, Stepney",-0.049067,51.51563,20,2,22,20,0,715
"Stainsby Road , Poplar",-0.023565,51.515427,19,5,24,17,2,716
"Dunston Road , Haggerston",-0.075885,51.536585,37,6,43,37,0,717
"Ada Street, Hackney Central",-0.060291,51.535716,22,23,45,22,0,718
"Victoria Park Road, Hackney Central",-0.054162,51.536424,30,4,34,29,1,719
"Star Road, West Kensington",-0.205279,51.487244,20,3,23,19,1,720
"Wendon Street, Old Ford",-0.026262,51.536039,6,12,18,5,1,721
"Finnis Street, Bethnal Green",-0.058631,51.524583,10,9,19,10,0,722
"Stephendale Road, Sands End",-0.190346,51.46822,16,32,48,15,1,723
"Alma Road, Wandsworth",-0.184806,51.457991,27,1,28,26,1,724
"Walworth Square, Walworth",-0.096518,51.491327,22,2,24,22,0,725
"Alfreda Street, Battersea Park",-0.150908,51.47505,21,1,22,21,0,726
"Putney Bridge Road, East Putney",-0.20624,51.461999,4,25,29,4,0,728
"St. Peter's Terrace, Fulham",-0.208485,51.478939,24,0,24,24,0,729
"Bridge Avenue, Hammersmith",-0.229116,51.492084,18,0,18,18,0,730
"Michael Road, Walham Green",-0.18921,51.477276,36,1,37,35,1,731
"Duke Street Hill, London Bridge",-0.087262,51.506304,3,18,21,2,1,732
"Park Lane, Mayfair",-0.150817,51.505426,0,18,18,0,0,733
"Plough Terrace, Clapham Junction",-0.175407,51.462305,23,8,31,20,3,734
"Grant Road East, Clapham Junction",-0.173029,51.464894,28,0,28,28,0,735
"Queensdale Road, Shepherd's Bush",-0.216104,51.50659,18,10,28,18,0,736
"Fulham Broadway, Walham Green",-0.194116,51.479932,26,0,26,25,1,737
"Imperial Road, Sands End",-0.187278,51.475142,12,25,37,11,1,738
"Hortensia Road, West Brompton",-0.185273,51.481765,26,2,28,26,0,739
"Sirdar Road, Avondale",-0.214594,51.510928,14,12,26,14,0,740
"Freston Road, Avondale",-0.219486,51.512981,22,1,23,21,1,741
"Blenheim Crescent, Ladbroke Grove",-0.208565,51.515108,21,1,22,20,1,742
"Oxford Road, Putney",-0.212607,51.460792,24,5,29,24,0,743
"Ingrave Street, Clapham Junction",-0.172293,51.467454,30,0,30,30,0,744
"Upcerne Road, West Chelsea",-0.182435,51.478169,23,6,29,23,0,745
"Lots Road, West Chelsea",-0.179038,51.479573,19,5,24,18,1,746
"Ormonde Gate, Chelsea",-0.161765,51.487964,19,5,24,19,0,747
"Hertford Road, De Beauvoir Town",-0.079201,51.537277,24,1,25,23,1,748
"Haggerston Road, Haggerston",-0.074284,51.539328,35,2,37,35,0,749
"Culvert Road, Battersea",-0.15785,51.471095,25,2,27,24,1,750
"Newton Street, Covent Garden",-0.120909,51.516128,1,23,24,1,0,751
"London Street, Paddington",-0.173712,51.515117,16,3,19,15,1,752
"Grenfell Road, Avondale",-0.214762,51.5129,16,8,24,16,0,754
"The Vale, Chelsea",-0.174971,51.485121,24,0,24,24,0,755
"Prince of Wales Drive, Battersea Park",-0.159169,51.475153,21,0,21,18,3,756
"Harcourt Terrace, West Brompton",-0.187404,51.487958,24,0,24,24,0,757
"Westbourne Park Road, Portobello",-0.201005,51.51787,19,4,23,17,2,758
"Broadley Terrace, Marylebone",-0.165668,51.524561,13,5,18,13,0,759
"Humbolt Road, Fulham",-0.21186,51.483217,26,0,26,23,3,761
"Storey's Gate, Westminster",-0.129698,51.500703,5,16,21,5,0,762
"Mile End Park Leisure Centre, Mile End",-0.032566,51.520597,6,41,47,4,2,763
"St. John's Road, Clapham Junction",-0.168292,51.462392,33,0,33,32,1,764
"Ranelagh Gardens, Fulham",-0.206827,51.467601,28,11,39,27,1,765
"Ram Street, Wandsworth",-0.192165,51.457529,23,2,25,23,0,766
"Santos Road, Wandsworth",-0.200806,51.457059,3,27,30,2,1,767
"Clapham Common North Side, Clapham Common",-0.159322,51.461343,37,0,37,35,2,768
"Sandilands Road, Walham Green",-0.191803,51.473611,21,0,21,20,1,769
"Gwendwr Road, West Kensington",-0.209121,51.491026,19,11,30,19,0,770
"Rifle Place, Avondale",-0.216016,51.509224,21,0,21,21,0,771
"Binfield Road, Stockwell",-0.122831,51.472509,35,0,35,34,1,772
"Tallis Street, Temple",-0.107349,51.511891,0,24,24,0,0,773
"Hurlingham Park, Parsons Green",-0.20464,51.470131,18,2,20,18,0,774
"Little Brook Green, Brook Green",-0.223868,51.496664,26,7,33,24,2,775
"Limburg Road, Clapham Junction",-0.165297,51.461923,21,0,21,20,1,777
"Houndsditch, Aldgate",-0.077178,51.514449,3,25,28,3,0,779
"Imperial Wharf Station, Sands End",-0.183165,51.474665,23,2,25,21,2,780
"Victoria & Albert Museum, South Kensington",-0.173009,51.495898,1,29,30,1,0,781
"Halford Road, West Kensington",-0.197609,51.483911,24,0,24,23,1,782
"Monier Road, Hackney Wick",-0.02163,51.540311,24,3,27,22,2,783
"East Village, Queen Elizabeth Olympic Park",-0.009935,51.546326,34,0,34,34,0,784
"Lee Valley VeloPark, Queen Elizabeth Olympic Park",-0.015717,51.549369,44,0,44,41,3,786
"Timber Lodge, Queen Elizabeth Olympic Park",-0.014691,51.546805,35,0,35,32,3,787
"Copper Box Arena, Queen Elizabeth Olympic Park",-0.020542,51.544909,24,7,31,22,2,788
"Podium, Queen Elizabeth Olympic Park",-0.011889,51.538718,37,3,40,37,0,789
"Stratford Station, Stratford",-0.00481,51.541793,23,5,28,23,0,790
"Blackfriars Road, Southwark",-0.10454,51.505461,20,22,42,20,0,792
"Cromer Street, Bloomsbury",-0.119558,51.528279,5,23,28,4,1,793
"Victoria Rise, Clapham Common",-0.147804,51.461376,21,2,23,20,1,794
"Euston Square Gardens, Euston",-0.131861,51.527068,10,20,30,10,0,795
"Coram Street, Bloomsbury",-0.126409,51.524,1,28,29,1,0,796
"Ossulston Street, Somers Town",-0.128279,51.5293,16,14,30,16,0,797
"Birkenhead Street, King's Cross",-0.122299,51.530199,22,5,27,22,0,798
"Kings Gate House, Westminster",-0.137598,51.497698,1,23,24,1,0,799
"Sopwith Way, Battersea Park",-0.149035,51.481121,29,1,30,29,0,800
"Lavington Street, Bankside",-0.098031,51.505224,7,22,29,7,0,801
"Albert Square, Stockwell",-0.118256,51.47659,29,3,32,28,1,802
"Southwark Street, Bankside",-0.098341,51.505409,13,10,23,13,0,803
"Good's Way, King's Cross",-0.125078,51.534667,12,15,27,12,0,804
"The Metropolitan, Portobello",-0.200804,51.520509,11,7,18,9,2,805
"Handyside Street, King's Cross",-0.124807,51.53724,2,25,27,2,0,806
"Bevington Road West, North Kensington",-0.208888,51.5212,11,13,24,9,2,807
"Gauden Road, Clapham",-0.130908,51.464995,20,8,28,15,5,808
"Lincoln's Inn Fields, Holborn",-0.118272,51.516277,3,25,28,3,0,809
"Tate Modern, Bankside",-0.098807,51.506725,7,23,30,7,0,810
"Westferry Circus, Canary Wharf",-0.027772,51.505703,19,17,36,18,1,811
"Here East North, Queen Elizabeth Olympic Park",-0.022606,51.548731,25,3,28,24,1,812
"New Spring Gardens Walk, Vauxhall",-0.122759,51.487807,33,4,37,32,1,813
"Clapham Road, Lingham Street, Stockwell",-0.12367,51.471433,21,9,30,20,1,814
"Lambeth Palace Road, Waterloo",-0.116628,51.500089,3,32,35,3,0,815
"Here East South, Queen Elizabeth Olympic Park",-0.020597,51.546532,28,0,28,28,0,816
"Riverlight South, Nine Elms",-0.138212,51.481335,26,0,26,25,1,817
"Westminster Pier, Westminster",-0.123823,51.501513,6,21,27,6,0,818
"Belvedere Road 2, South Bank",-0.114842,51.50621,6,32,38,6,0,819
"Victory Place, Walworth",-0.091938,51.492807,24,0,24,23,1,820
"Battersea Power Station, Battersea Park",-0.147714,51.483507,23,4,27,21,2,821
"Allington Street, Victoria",-0.142943,51.496863,8,20,28,8,0,826
"Normandy Road, Stockwell",-0.11258,51.473874,31,1,32,30,1,828
"Wynne Road, Stockwell",-0.112686,51.469217,25,0,25,23,2,829
"Sidney Road, Stockwell",-0.119022,51.469202,24,3,27,22,2,830
"St John's Crescent, Brixton",-0.113179,51.466232,25,0,25,25,0,831
"Ferndale Road, Brixton",-0.115781,51.464019,25,5,30,22,3,832
"Saltoun Road, Brixton",-0.115375,51.460232,36,6,42,34,2,833
"Gas Holders, Battersea Park",-0.147857,51.477966,26,0,26,26,0,834
"Farringdon Street, Holborn",-0.104947,51.516785,0,25,25,0,0,835
"York Way, Kings Cross",-0.125441,51.541596,11,13,24,10,1,836
"Fore Street Avenue, Guildhall",-0.091401,51.518093,3,22,25,3,0,838
"Sea Containers, South Bank",-0.106823,51.508033,4,26,30,1,3,839
"George Row, Bermondsey",-0.068981,51.498585,22,0,22,21,1,840
"Tower Wharf, Bermondsey",-0.074704,51.500845,15,5,20,15,0,841
"Temple Gardens, Temple",-0.108322,51.510981,2,22,24,2,0,842
"Canada Water Station, Rotherhithe",-0.04915,51.498439,35,0,35,34,1,844
"Bermondsey Station, Bermondsey",-0.063471,51.497995,24,6,30,24,0,845
"Burgess Park Albany Road, Walworth",-0.094284,51.48224,30,0,30,30,0,846
"South Bermondsey Station, Bermondsey",-0.057774,51.488067,13,11,24,11,2,847
"Crimscott Street, Bermondsey",-0.078893,51.495598,18,1,19,18,0,849
"Brandon Street, Walworth",-0.091548,51.489102,12,10,22,12,0,850
"The Blue, Bermondsey",-0.062513,51.492221,14,8,22,13,1,851
"Coomer Place, West Kensington",-0.202038,51.48357,20,7,27,20,0,852
"Wellington Street , Strand",-0.119643,51.511756,2,22,24,0,2,338
"Howick Place, Westminster",-0.138733,51.496753,2,25,27,2,0,360
"Southampton Street, Strand",-0.121723,51.510701,0,14,14,0,0,388
"Royal London Hospital, Whitechapel",-0.06111,51.518675,21,21,42,20,1,282
